bus_id,route_id,route_short_name,route_long_name,stop_id,stop_name,stop_lat,stop_lon,departure_time,arrival_time,segment_distance_km,speed_kmh,traffic_level,source,destination,travel_time_min
BUS0096,0,R_RD,RED_Rithala to Dilshad Garden,12,shastri nagar,28.670135,77.181679,2025-09-12 17:49:22,2025-09-12 17:49:02,1.175827597486675,27.30954419969051,Low,Rithala,Dilshad Garden,
BUS0248,0,R_RD,RED_Rithala to Dilshad Garden,7,shastri park,28.668451,77.250404,2025-09-12 17:38:09,2025-09-12 17:37:49,2.185575574802384,34.96920919683814,Low,Rithala,Dilshad Garden,
BUS0255,1,R_RS,RED_Rithala to Shaheed Sthal (New Bus Adda),231,raj bagh,28.677122,77.346466,2025-09-12 19:52:32,2025-09-12 19:52:12,1.236049481817347,29.66518756361634,Low,Rithala,Shaheed Sthal (New Bus Adda),
BUS0259,1,R_RS,RED_Rithala to Shaheed Sthal (New Bus Adda),230,major mohit sharma rajender nagar,28.678095,77.359528,2025-09-12 09:37:40,2025-09-12 09:37:20,1.27884910303332,32.8846912208568,Low,Rithala,Shaheed Sthal (New Bus Adda),
BUS0034,1,R_RS,RED_Rithala to Shaheed Sthal (New Bus Adda),228,mohan nagar,28.67856,77.384209,2025-09-12 15:52:04,2025-09-12 15:51:44,1.297838117242847,29.95011039791186,Low,Rithala,Shaheed Sthal (New Bus Adda),
BUS0061,1,R_RS,RED_Rithala to Shaheed Sthal (New Bus Adda),3,mansrover park,28.675352,77.301178,2025-09-12 20:14:06,2025-09-12 20:13:46,1.371862532418809,32.92470077805142,Low,Rithala,Shaheed Sthal (New Bus Adda),
BUS0264,1,R_RS,RED_Rithala to Shaheed Sthal (New Bus Adda),226,hindon river,28.673508,77.40654,2025-09-12 16:54:02,2025-09-12 16:53:42,1.488317969528735,30.97077855666732,Low,Rithala,Shaheed Sthal (New Bus Adda),
BUS0182,1,R_RS,RED_Rithala to Shaheed Sthal (New Bus Adda),226,hindon river,28.673508,77.40654,2025-09-12 13:05:40,2025-09-12 13:05:20,1.488317969528735,30.97077855666732,Low,Rithala,Shaheed Sthal (New Bus Adda),
BUS0291,1,R_RS,RED_Rithala to Shaheed Sthal (New Bus Adda),6,seelam pur,28.670324,77.267311,2025-09-12 06:10:47,2025-09-12 06:10:27,1.662589072184965,35.20776858744632,Low,Rithala,Shaheed Sthal (New Bus Adda),
BUS0279,1,R_RS,RED_Rithala to Shaheed Sthal (New Bus Adda),7,shastri park,28.668451,77.250404,2025-09-12 13:59:05,2025-09-12 13:58:45,2.185575574802384,34.96920919683814,Low,Rithala,Shaheed Sthal (New Bus Adda),
BUS0108,2,Y_HS,YELLOW_Huda City Centre to Samaypur Badli,64,sultanpur,28.499214,77.161362,2025-09-12 20:34:23,2025-09-12 20:34:03,1.342046930077402,32.86645543046699,Low,Huda City Centre,Samaypur Badli,
BUS0156,2,Y_HS,YELLOW_Huda City Centre to Samaypur Badli,64,sultanpur,28.499214,77.161362,2025-09-12 21:58:07,2025-09-12 21:57:47,1.342046930077402,32.86645543046699,Low,Huda City Centre,Samaypur Badli,
BUS0123,2,Y_HS,YELLOW_Huda City Centre to Samaypur Badli,64,sultanpur,28.499214,77.161362,2025-09-12 21:40:55,2025-09-12 21:40:35,1.342046930077402,32.86645543046699,Low,Huda City Centre,Samaypur Badli,
BUS0186,2,Y_HS,YELLOW_Huda City Centre to Samaypur Badli,58,green park,28.559853,77.206902,2025-09-12 22:10:39,2025-09-12 22:10:19,1.835630928276949,35.9145181619403,Low,Huda City Centre,Samaypur Badli,
BUS0083,2,Y_HS,YELLOW_Huda City Centre to Samaypur Badli,66,arjan garh,28.48082,77.12587,2025-09-12 20:48:06,2025-09-12 20:47:46,2.315790484323193,38.59650807205323,Low,Huda City Centre,Samaypur Badli,
BUS0140,2,Y_HS,YELLOW_Huda City Centre to Samaypur Badli,65,ghitorni,28.49383,77.149071,2025-09-12 23:21:40,2025-09-12 23:21:20,2.689651150455557,45.24646795158881,Low,Huda City Centre,Samaypur Badli,
BUS0232,2,Y_HS,YELLOW_Huda City Centre to Samaypur Badli,37,rohini sector 1819,28.740192,77.135574,2025-09-12 20:37:38,2025-09-12 20:37:18,2.77499378156871,50.96927353901712,Low,Huda City Centre,Samaypur Badli,
BUS0193,2,Y_HS,YELLOW_Huda City Centre to Samaypur Badli,40,adarsh nagar,28.696377,77.208809,,,3.072787181432482,71.36796034294798,Low,Huda City Centre,Samaypur Badli,
BUS0178,3,Y_QV,YELLOW_Qutab Minar to Vishwavidyalaya,55,jorbagh,28.587234,77.212662,2025-09-12 06:14:01,2025-09-12 06:13:41,1.374414698357997,33.4317088789783,Low,Qutab Minar,Vishwavidyalaya,
BUS0240,3,Y_QV,YELLOW_Qutab Minar to Vishwavidyalaya,55,jorbagh,28.587234,77.212662,2025-09-12 14:05:05,2025-09-12 14:04:45,1.374414698357997,33.4317088789783,Low,Qutab Minar,Vishwavidyalaya,
BUS0032,3,Y_QV,YELLOW_Qutab Minar to Vishwavidyalaya,53,udyog bhawan,28.611525,77.210052,2025-09-12 19:34:57,2025-09-12 19:34:37,1.560040213217055,37.19301170583709,Low,Qutab Minar,Vishwavidyalaya,
BUS0126,3,Y_QV,YELLOW_Qutab Minar to Vishwavidyalaya,61,saket,28.520638,77.199379,2025-09-12 21:36:05,2025-09-12 21:35:45,1.5933924255427,30.19059332607221,Low,Qutab Minar,Vishwavidyalaya,
BUS0168,3,Y_QV,YELLOW_Qutab Minar to Vishwavidyalaya,59,hauz khas,28.543346,77.206673,2025-09-12 21:21:43,2025-09-12 21:21:23,1.690674168397489,32.72272583995139,Low,Qutab Minar,Vishwavidyalaya,
BUS0012,3,Y_QV,YELLOW_Qutab Minar to Vishwavidyalaya,58,green park,28.559853,77.206902,2025-09-12 05:37:43,2025-09-12 05:37:23,1.835630928276949,35.9145181619403,Low,Qutab Minar,Vishwavidyalaya,
BUS0038,3,Y_QV,YELLOW_Qutab Minar to Vishwavidyalaya,58,green park,28.559853,77.206902,2025-09-12 11:53:45,2025-09-12 11:53:25,1.835630928276949,35.9145181619403,Low,Qutab Minar,Vishwavidyalaya,
BUS0250,3,Y_QV,YELLOW_Qutab Minar to Vishwavidyalaya,58,green park,28.559853,77.206902,2025-09-12 08:46:17,2025-09-12 08:45:57,1.835630928276949,35.9145181619403,Low,Qutab Minar,Vishwavidyalaya,
BUS0230,4,Y_HQ,YELLOW_Huda City Centre to Qutab Minar,71,huda city centre,28.459118,77.072586,2025-09-12 21:25:57,2025-09-12 21:25:37,2.315790484323193,32.70191689861661,Low,Huda City Centre,Qutab Minar,
BUS0104,4,Y_HQ,YELLOW_Huda City Centre to Qutab Minar,66,arjan garh,28.48082,77.12587,2025-09-12 15:55:46,2025-09-12 15:55:26,2.315790484323193,38.59650807205323,Low,Huda City Centre,Qutab Minar,
BUS0093,4,Y_HQ,YELLOW_Huda City Centre to Qutab Minar,66,arjan garh,28.48082,77.12587,2025-09-12 08:14:54,2025-09-12 08:14:34,2.315790484323193,38.59650807205323,Low,Huda City Centre,Qutab Minar,
BUS0244,4,Y_HQ,YELLOW_Huda City Centre to Qutab Minar,66,arjan garh,28.48082,77.12587,2025-09-12 06:46:02,2025-09-12 06:45:42,2.315790484323193,38.59650807205323,Low,Huda City Centre,Qutab Minar,
BUS0096,4,Y_HQ,YELLOW_Huda City Centre to Qutab Minar,66,arjan garh,28.48082,77.12587,2025-09-12 13:12:22,2025-09-12 13:12:02,2.315790484323193,38.59650807205323,Low,Huda City Centre,Qutab Minar,
BUS0124,4,Y_HQ,YELLOW_Huda City Centre to Qutab Minar,65,ghitorni,28.49383,77.149071,2025-09-12 23:54:32,2025-09-12 23:54:12,2.689651150455557,45.24646795158881,Low,Huda City Centre,Qutab Minar,
BUS0147,4,Y_HQ,YELLOW_Huda City Centre to Qutab Minar,65,ghitorni,28.49383,77.149071,2025-09-12 07:06:48,2025-09-12 07:06:28,2.689651150455557,45.24646795158881,Low,Huda City Centre,Qutab Minar,
BUS0050,4,Y_HQ,YELLOW_Huda City Centre to Qutab Minar,65,ghitorni,28.49383,77.149071,2025-09-12 21:51:16,2025-09-12 21:50:56,2.689651150455557,45.24646795158881,Low,Huda City Centre,Qutab Minar,
BUS0211,5,B_DN,BLUE_Dwarka Sector - 21 to Noida Electronic City,79,noida city centre,28.574593,77.356117,2025-09-12 16:12:15,2025-09-12 16:11:55,1.325966859670587,34.59043981749357,Low,Dwarka Sector - 21,Noida Electronic City,
BUS0235,5,B_DN,BLUE_Dwarka Sector - 21 to Noida Electronic City,113,dwarka,28.614899,77.022629,2025-09-12 12:56:54,2025-09-12 12:56:34,1.445115592217668,31.52979473929458,Low,Dwarka Sector - 21,Noida Electronic City,
BUS0241,5,B_DN,BLUE_Dwarka Sector - 21 to Noida Electronic City,50,rajiv chowk,28.632896,77.219574,2025-09-12 16:15:58,2025-09-12 16:15:38,1.474621224394028,34.0297205629391,Low,Dwarka Sector - 21,Noida Electronic City,
BUS0211,5,B_DN,BLUE_Dwarka Sector - 21 to Noida Electronic City,108,janak puri west,28.629637,77.077866,2025-09-12 17:38:52,2025-09-12 17:38:32,1.542106161492973,35.36039605971147,Low,Dwarka Sector - 21,Noida Electronic City,
BUS0123,5,B_DN,BLUE_Dwarka Sector - 21 to Noida Electronic City,120,dwarka sector 8,28.565706,77.064896,2025-09-12 16:12:22,2025-09-12 16:12:02,1.713614656544243,30.53966714633304,Low,Dwarka Sector - 21,Noida Electronic City,
BUS0157,5,B_DN,BLUE_Dwarka Sector - 21 to Noida Electronic City,120,dwarka sector 8,28.565706,77.064896,2025-09-12 07:43:26,2025-09-12 07:43:06,1.713614656544243,30.53966714633304,Low,Dwarka Sector - 21,Noida Electronic City,
BUS0205,5,B_DN,BLUE_Dwarka Sector - 21 to Noida Electronic City,89,yamuna bank,28.623178,77.267937,2025-09-12 23:17:59,2025-09-12 23:17:39,1.7730532411989,32.90201890884557,Low,Dwarka Sector - 21,Noida Electronic City,
BUS0021,5,B_DN,BLUE_Dwarka Sector - 21 to Noida Electronic City,89,yamuna bank,28.623178,77.267937,2025-09-12 14:19:43,2025-09-12 14:19:23,1.7730532411989,32.90201890884557,Low,Dwarka Sector - 21,Noida Electronic City,
BUS0063,6,B_DV,BLUE_Dwarka Sector - 21 to Vaishali,108,janak puri west,28.629637,77.077866,2025-09-12 12:01:38,2025-09-12 12:01:18,1.542106161492973,35.36039605971147,Low,Dwarka Sector - 21,Vaishali,
BUS0138,6,B_DV,BLUE_Dwarka Sector - 21 to Vaishali,108,janak puri west,28.629637,77.077866,2025-09-12 21:44:14,2025-09-12 21:43:54,1.542106161492973,35.36039605971147,Low,Dwarka Sector - 21,Vaishali,
BUS0204,6,B_DV,BLUE_Dwarka Sector - 21 to Vaishali,72,vaishali,28.650059,77.337608,2025-09-12 21:09:47,2025-09-12 21:09:27,1.582554714840545,32.55541127671979,Low,Dwarka Sector - 21,Vaishali,
BUS0027,6,B_DV,BLUE_Dwarka Sector - 21 to Vaishali,72,vaishali,28.650059,77.337608,2025-09-12 10:50:01,2025-09-12 10:49:41,1.582554714840545,32.55541127671979,Low,Dwarka Sector - 21,Vaishali,
BUS0154,6,B_DV,BLUE_Dwarka Sector - 21 to Vaishali,72,vaishali,28.650059,77.337608,2025-09-12 10:39:09,2025-09-12 10:38:49,1.582554714840545,32.55541127671979,Low,Dwarka Sector - 21,Vaishali,
BUS0179,6,B_DV,BLUE_Dwarka Sector - 21 to Vaishali,120,dwarka sector 8,28.565706,77.064896,2025-09-12 22:43:58,2025-09-12 22:43:38,1.713614656544243,30.53966714633304,Low,Dwarka Sector - 21,Vaishali,
BUS0189,6,B_DV,BLUE_Dwarka Sector - 21 to Vaishali,89,yamuna bank,28.623178,77.267937,2025-09-12 13:44:31,2025-09-12 13:44:11,1.7730532411989,32.90201890884557,Low,Dwarka Sector - 21,Vaishali,
BUS0208,6,B_DV,BLUE_Dwarka Sector - 21 to Vaishali,89,yamuna bank,28.623178,77.267937,2025-09-12 10:38:03,2025-09-12 10:37:43,1.7730532411989,32.90201890884557,Low,Dwarka Sector - 21,Vaishali,
BUS0286,7,G_KB,GREEN_Kirti Nagar to Brigadier Hoshiyar Singh,34,ashok park main,28.671572,77.155159,2025-09-12 07:55:45,2025-09-12 07:55:25,1.075478559859107,18.88645275850138,Medium,Kirti Nagar,Brigadier Hoshiyar Singh,
BUS0013,7,G_KB,GREEN_Kirti Nagar to Brigadier Hoshiyar Singh,34,ashok park main,28.671572,77.155159,2025-09-12 14:29:45,2025-09-12 14:29:25,1.075478559859107,18.88645275850138,Medium,Kirti Nagar,Brigadier Hoshiyar Singh,
BUS0207,7,G_KB,GREEN_Kirti Nagar to Brigadier Hoshiyar Singh,31,madipur,28.676418,77.117294,2025-09-12 09:08:00,2025-09-12 09:07:40,1.08174685270241,29.95606669022058,Low,Kirti Nagar,Brigadier Hoshiyar Singh,
BUS0240,7,G_KB,GREEN_Kirti Nagar to Brigadier Hoshiyar Singh,31,madipur,28.676418,77.117294,2025-09-12 14:27:00,2025-09-12 14:26:40,1.08174685270241,29.95606669022058,Low,Kirti Nagar,Brigadier Hoshiyar Singh,
BUS0205,7,G_KB,GREEN_Kirti Nagar to Brigadier Hoshiyar Singh,35,satguru ram singh marg,28.662188,77.157829,2025-09-12 13:46:20,2025-09-12 13:46:00,1.156528029499863,34.69584088499588,Low,Kirti Nagar,Brigadier Hoshiyar Singh,
BUS0085,7,G_KB,GREEN_Kirti Nagar to Brigadier Hoshiyar Singh,35,satguru ram singh marg,28.662188,77.157829,2025-09-12 18:54:20,2025-09-12 18:54:00,1.156528029499863,34.69584088499588,Low,Kirti Nagar,Brigadier Hoshiyar Singh,
BUS0252,7,G_KB,GREEN_Kirti Nagar to Brigadier Hoshiyar Singh,23,rajdhani park,28.682217,77.043869,2025-09-12 07:50:09,2025-09-12 07:49:49,1.20200544052451,29.04174218716937,Low,Kirti Nagar,Brigadier Hoshiyar Singh,
BUS0033,7,G_KB,GREEN_Kirti Nagar to Brigadier Hoshiyar Singh,22,mundka,28.682411,77.028282,2025-09-12 08:32:29,2025-09-12 08:32:09,1.520675486916937,39.10308394929267,Low,Kirti Nagar,Brigadier Hoshiyar Singh,
BUS0130,8,G_IB,GREEN_Inderlok to Brigadier Hoshiyar Singh,22,mundka,28.682411,77.028282,2025-09-12 09:06:54,2025-09-12 09:06:34,1.520675486916937,39.10308394929267,Low,Inderlok,Brigadier Hoshiyar Singh,
BUS0285,8,G_IB,GREEN_Inderlok to Brigadier Hoshiyar Singh,201,bahadurgarh city,28.690784,76.935265,2025-09-12 08:56:39,2025-09-12 08:56:19,1.553285352068207,31.59224444884488,Low,Inderlok,Brigadier Hoshiyar Singh,
BUS0219,8,G_IB,GREEN_Inderlok to Brigadier Hoshiyar Singh,201,bahadurgarh city,28.690784,76.935265,2025-09-12 19:47:39,2025-09-12 19:47:19,1.553285352068207,31.59224444884488,Low,Inderlok,Brigadier Hoshiyar Singh,
BUS0105,8,G_IB,GREEN_Inderlok to Brigadier Hoshiyar Singh,201,bahadurgarh city,28.690784,76.935265,2025-09-12 16:30:39,2025-09-12 16:30:19,1.553285352068207,31.59224444884488,Low,Inderlok,Brigadier Hoshiyar Singh,
BUS0056,8,G_IB,GREEN_Inderlok to Brigadier Hoshiyar Singh,198,tikri kalan,28.686899,76.977249,2025-09-12 07:18:28,2025-09-12 07:18:08,1.603458085319774,31.37200601712601,Low,Inderlok,Brigadier Hoshiyar Singh,
BUS0063,8,G_IB,GREEN_Inderlok to Brigadier Hoshiyar Singh,32,shivaji park,28.674965,77.128258,2025-09-12 12:42:15,2025-09-12 12:41:55,1.746488204984434,39.29598461214976,Low,Inderlok,Brigadier Hoshiyar Singh,
BUS0257,8,G_IB,GREEN_Inderlok to Brigadier Hoshiyar Singh,32,shivaji park,28.674965,77.128258,2025-09-12 07:28:15,2025-09-12 07:27:55,1.746488204984434,39.29598461214976,Low,Inderlok,Brigadier Hoshiyar Singh,
BUS0249,8,G_IB,GREEN_Inderlok to Brigadier Hoshiyar Singh,196,mundka industrial area mia,28.68396,76.989822,2025-09-12 10:57:24,2025-09-12 10:57:04,3.755719626151913,29.95606669022058,Low,Inderlok,Brigadier Hoshiyar Singh,
BUS0258,9,V_KB,VIOLET_Kashmere Gate to Badarpur Border,129,kailash colony,28.554617,77.239738,2025-09-12 09:31:36,2025-09-12 09:31:16,1.236777353311294,27.65464889391713,Low,Kashmere Gate,Badarpur Border,
BUS0194,9,V_KB,VIOLET_Kashmere Gate to Badarpur Border,129,kailash colony,28.554617,77.239738,2025-09-12 20:38:00,2025-09-12 20:37:40,1.236777353311294,27.65464889391713,Low,Kashmere Gate,Badarpur Border,
BUS0227,9,V_KB,VIOLET_Kashmere Gate to Badarpur Border,129,kailash colony,28.554617,77.239738,2025-09-12 18:08:24,2025-09-12 18:08:04,1.236777353311294,27.65464889391713,Low,Kashmere Gate,Badarpur Border,
BUS0059,9,V_KB,VIOLET_Kashmere Gate to Badarpur Border,160,lal quila,28.657576,77.236595,2025-09-12 09:27:17,2025-09-12 09:26:57,1.419080625291479,27.03010714840913,Low,Kashmere Gate,Badarpur Border,
BUS0036,9,V_KB,VIOLET_Kashmere Gate to Badarpur Border,160,lal quila,28.657576,77.236595,2025-09-12 07:00:29,2025-09-12 07:00:09,1.419080625291479,27.03010714840913,Low,Kashmere Gate,Badarpur Border,
BUS0010,9,V_KB,VIOLET_Kashmere Gate to Badarpur Border,125,jawahar lal nehru stadium,28.590475,77.23307,2025-09-12 17:30:47,2025-09-12 17:30:27,1.441609278249371,29.3208666762584,Low,Kashmere Gate,Badarpur Border,
BUS0245,9,V_KB,VIOLET_Kashmere Gate to Badarpur Border,122,ito,28.627205,77.240952,2025-09-12 09:54:31,2025-09-12 09:54:11,1.478359713941524,38.56590558108324,Low,Kashmere Gate,Badarpur Border,
BUS0241,9,V_KB,VIOLET_Kashmere Gate to Badarpur Border,123,janpath,28.627817,77.218956,2025-09-12 13:37:15,2025-09-12 13:36:55,1.555187661486888,25.56472868197625,Low,Kashmere Gate,Badarpur Border,
BUS0075,10,V_KR,VIOLET_Kashmere Gate to Raja Nahar Singh,139,sarai,28.47794,77.304932,,,1.743102628310116,33.37856096764052,Low,Kashmere Gate,Raja Nahar Singh,
BUS0110,10,V_KR,VIOLET_Kashmere Gate to Raja Nahar Singh,146,bata chowk,28.386362,77.298782,2025-09-12 19:22:59,2025-09-12 19:22:39,1.887848208986832,43.2882391869592,Low,Kashmere Gate,Raja Nahar Singh,
BUS0264,10,V_KR,VIOLET_Kashmere Gate to Raja Nahar Singh,146,bata chowk,28.386362,77.298782,2025-09-12 10:21:11,2025-09-12 10:20:51,1.887848208986832,43.2882391869592,Low,Kashmere Gate,Raja Nahar Singh,
BUS0167,10,V_KR,VIOLET_Kashmere Gate to Raja Nahar Singh,146,bata chowk,28.386362,77.298782,2025-09-12 19:50:11,2025-09-12 19:49:51,1.887848208986832,43.2882391869592,Low,Kashmere Gate,Raja Nahar Singh,
BUS0170,10,V_KR,VIOLET_Kashmere Gate to Raja Nahar Singh,137,tughlakabad station,28.502232,77.29866,2025-09-12 10:38:14,2025-09-12 10:37:54,1.972096065078998,33.48842374662451,Low,Kashmere Gate,Raja Nahar Singh,
BUS0211,10,V_KR,VIOLET_Kashmere Gate to Raja Nahar Singh,124,khan market,28.602682,77.228096,2025-09-12 11:51:38,2025-09-12 11:51:18,2.080355944276128,32.28138534221578,Low,Kashmere Gate,Raja Nahar Singh,
BUS0062,10,V_KR,VIOLET_Kashmere Gate to Raja Nahar Singh,220,raja nahar singh,28.339899,77.331657,2025-09-12 19:34:29,2025-09-12 19:34:09,2.228512232438074,21.11222114941333,Medium,Kashmere Gate,Raja Nahar Singh,
BUS0280,10,V_KR,VIOLET_Kashmere Gate to Raja Nahar Singh,147,escorts mujesar,28.370199,77.315002,2025-09-12 20:33:49,2025-09-12 20:33:29,2.397531165499194,50.77124821057117,Low,Kashmere Gate,Raja Nahar Singh,
BUS0054,11,P_MS,PINK_Majlis Park to Shiv Vihar,221,vinobapuri,28.566179,77.249367,2025-09-12 22:50:11,2025-09-12 22:49:51,1.664157968838579,30.72291634778914,Low,Majlis Park,Shiv Vihar,
BUS0094,11,P_MS,PINK_Majlis Park to Shiv Vihar,221,vinobapuri,28.566179,77.249367,2025-09-12 23:27:41,2025-09-12 23:27:21,1.664157968838579,30.72291634778914,Low,Majlis Park,Shiv Vihar,
BUS0102,11,P_MS,PINK_Majlis Park to Shiv Vihar,180,delhi cantt,28.608641,77.140373,2025-09-12 19:04:28,2025-09-12 19:04:08,1.76270229713913,31.88808175729079,Low,Majlis Park,Shiv Vihar,
BUS0218,11,P_MS,PINK_Majlis Park to Shiv Vihar,177,esi basai darapur,28.658159,77.127319,2025-09-12 20:36:23,2025-09-12 20:36:03,1.992765931073993,37.75767027298092,Low,Majlis Park,Shiv Vihar,
BUS0210,11,P_MS,PINK_Majlis Park to Shiv Vihar,177,esi basai darapur,28.658159,77.127319,2025-09-12 09:47:59,2025-09-12 09:47:39,1.992765931073993,37.75767027298092,Low,Majlis Park,Shiv Vihar,
BUS0143,11,P_MS,PINK_Majlis Park to Shiv Vihar,177,esi basai darapur,28.658159,77.127319,2025-09-12 18:57:35,2025-09-12 18:57:15,1.992765931073993,37.75767027298092,Low,Majlis Park,Shiv Vihar,
BUS0286,11,P_MS,PINK_Majlis Park to Shiv Vihar,181,durgabai deshmukh south campus,28.589376,77.169518,2025-09-12 09:34:17,2025-09-12 09:33:57,3.561606581712606,39.45164213589349,Low,Majlis Park,Shiv Vihar,
BUS0044,11,P_MS,PINK_Majlis Park to Shiv Vihar,181,durgabai deshmukh south campus,28.589376,77.169518,2025-09-12 09:08:17,2025-09-12 09:07:57,3.561606581712606,39.45164213589349,Low,Majlis Park,Shiv Vihar,
BUS0155,12,M_JB,MAGENTA_Janak Puri West to Botanical Garden,193,palam,28.589067,77.082954,2025-09-12 22:54:29,2025-09-12 22:54:09,1.475639136235945,34.72092085261047,Low,Janak Puri West,Botanical Garden,
BUS0221,12,M_JB,MAGENTA_Janak Puri West to Botanical Garden,194,dashrath puri,28.602333,77.08255,2025-09-12 19:17:01,2025-09-12 19:16:41,1.532005979507693,30.47083716147897,Low,Janak Puri West,Botanical Garden,
BUS0128,12,M_JB,MAGENTA_Janak Puri West to Botanical Garden,161,okhla bird sanctuary,28.552816,77.321564,2025-09-12 14:09:40,2025-09-12 14:09:20,1.571517955682594,32.32836937404193,Low,Janak Puri West,Botanical Garden,
BUS0250,12,M_JB,MAGENTA_Janak Puri West to Botanical Garden,195,dabri mor janakpuri south,28.615904,77.085258,2025-09-12 16:31:05,2025-09-12 16:30:45,1.688910678790736,34.74330539226656,Low,Janak Puri West,Botanical Garden,
BUS0272,12,M_JB,MAGENTA_Janak Puri West to Botanical Garden,195,dabri mor janakpuri south,28.615904,77.085258,2025-09-12 21:21:10,2025-09-12 21:20:50,1.688910678790736,34.74330539226656,Low,Janak Puri West,Botanical Garden,
BUS0205,12,M_JB,MAGENTA_Janak Puri West to Botanical Garden,191,terminal 1 igi airport,28.565275,77.122391,2025-09-12 12:40:47,2025-09-12 12:40:27,1.70389424398401,31.61865607393008,Low,Janak Puri West,Botanical Garden,
BUS0134,12,M_JB,MAGENTA_Janak Puri West to Botanical Garden,81,botanical garden,28.564198,77.334656,2025-09-12 22:59:52,2025-09-12 22:59:32,1.799087737513538,27.9168786855549,Low,Janak Puri West,Botanical Garden,
BUS0044,12,M_JB,MAGENTA_Janak Puri West to Botanical Garden,190,shankar vihar,28.560787,77.140442,2025-09-12 06:39:52,2025-09-12 06:39:32,1.832163144189893,32.17457228821276,Low,Janak Puri West,Botanical Garden,
BUS0134,13,G_DD,GRAY_Dwarka to Dhansa Bus Stand,240,najafgarh,28.613316,76.986259,2025-09-12 20:34:20,2025-09-12 20:34:00,2.390848654033864,32.60248164591633,Low,Dwarka,Dhansa Bus Stand,
BUS0243,14,O_DN,ORANGE/AIRPORT_Dwarka Sector - 21 to New Delhi,154,igi airport,28.554869,77.087921,2025-09-12 21:19:41,2025-09-12 21:19:21,3.111312737009776,42.91465844151415,Low,Dwarka Sector - 21,New Delhi,
BUS0259,14,O_DN,ORANGE/AIRPORT_Dwarka Sector - 21 to New Delhi,157,shivaji stadium,28.629007,77.209213,2025-09-12 05:59:46,2025-09-12 05:59:26,6.228270873870684,56.47802303761829,Low,Dwarka Sector - 21,New Delhi,
BUS0165,15,R_SP,RAPID_Sector 55-56 (Rapid Metro) to Phase 3 (Rapid Metro),68,sikanderpur,28.481352,77.092995,2025-09-12 14:31:11,2025-09-12 14:30:51,1.046710441241135,26.91541134620062,Low,Sector 55-56 (Rapid Metro),Phase 3 (Rapid Metro),
BUS0001,15,R_SP,RAPID_Sector 55-56 (Rapid Metro) to Phase 3 (Rapid Metro),171,sector 54 chowk rapid metro,28.434212,77.104782,2025-09-12 19:07:41,2025-09-12 19:07:21,1.070553106380892,19.26995591485605,Medium,Sector 55-56 (Rapid Metro),Phase 3 (Rapid Metro),
BUS0046,15,R_SP,RAPID_Sector 55-56 (Rapid Metro) to Phase 3 (Rapid Metro),171,sector 54 chowk rapid metro,28.434212,77.104782,2025-09-12 19:17:21,2025-09-12 19:17:01,1.070553106380892,19.26995591485605,Medium,Sector 55-56 (Rapid Metro),Phase 3 (Rapid Metro),
BUS0154,15,R_SP,RAPID_Sector 55-56 (Rapid Metro) to Phase 3 (Rapid Metro),168,phasei rapid metro,28.471981,77.094009,2025-09-12 15:40:51,2025-09-12 15:40:31,1.527082947737952,27.48749305928315,Low,Sector 55-56 (Rapid Metro),Phase 3 (Rapid Metro),
BUS0096,15,R_SP,RAPID_Sector 55-56 (Rapid Metro) to Phase 3 (Rapid Metro),168,phasei rapid metro,28.471981,77.094009,2025-09-12 07:57:11,2025-09-12 07:56:51,1.527082947737952,27.48749305928315,Low,Sector 55-56 (Rapid Metro),Phase 3 (Rapid Metro),
BUS0203,15,R_SP,RAPID_Sector 55-56 (Rapid Metro) to Phase 3 (Rapid Metro),168,phasei rapid metro,28.471981,77.094009,2025-09-12 09:13:11,2025-09-12 09:12:51,1.527082947737952,27.48749305928315,Low,Sector 55-56 (Rapid Metro),Phase 3 (Rapid Metro),
BUS0139,15,R_SP,RAPID_Sector 55-56 (Rapid Metro) to Phase 3 (Rapid Metro),170,sector 5354 rapid metro,28.447533,77.100487,2025-09-12 18:03:21,2025-09-12 18:03:01,1.539606067359056,27.71290921246301,Low,Sector 55-56 (Rapid Metro),Phase 3 (Rapid Metro),
BUS0024,15,R_SP,RAPID_Sector 55-56 (Rapid Metro) to Phase 3 (Rapid Metro),170,sector 5354 rapid metro,28.447533,77.100487,2025-09-12 09:40:21,2025-09-12 09:40:01,1.539606067359056,27.71290921246301,Low,Sector 55-56 (Rapid Metro),Phase 3 (Rapid Metro),
BUS0184,16,A_NN,AQUA_Noida Sector 51 to Noida Sector 142,506,noida sector 83,28.522284,77.396477,2025-09-12 16:26:50,2025-09-12 16:26:30,1.117931297993304,28.74680480554211,Low,Noida Sector 51,Noida Sector 142,
BUS0068,16,A_NN,AQUA_Noida Sector 51 to Noida Sector 142,506,noida sector 83,28.522284,77.396477,2025-09-12 11:46:50,2025-09-12 11:46:30,1.117931297993304,28.74680480554211,Low,Noida Sector 51,Noida Sector 142,
BUS0144,16,A_NN,AQUA_Noida Sector 51 to Noida Sector 142,503,noida sector 101,28.556065,77.385056,2025-09-12 08:39:50,2025-09-12 08:39:30,1.165516901528205,29.97043461072527,Low,Noida Sector 51,Noida Sector 142,
BUS0018,16,A_NN,AQUA_Noida Sector 51 to Noida Sector 142,503,noida sector 101,28.556065,77.385056,2025-09-12 09:54:50,2025-09-12 09:54:30,1.165516901528205,29.97043461072527,Low,Noida Sector 51,Noida Sector 142,
BUS0215,16,A_NN,AQUA_Noida Sector 51 to Noida Sector 142,501,noida sector 50,28.574547,77.378357,2025-09-12 19:57:40,2025-09-12 19:57:20,1.257456261593408,32.33458958383049,Low,Noida Sector 51,Noida Sector 142,
BUS0286,16,A_NN,AQUA_Noida Sector 51 to Noida Sector 142,501,noida sector 50,28.574547,77.378357,2025-09-12 17:12:40,2025-09-12 17:12:20,1.257456261593408,32.33458958383049,Low,Noida Sector 51,Noida Sector 142,
BUS0237,16,A_NN,AQUA_Noida Sector 51 to Noida Sector 142,508,noida sector 142,28.498999,77.412567,2025-09-12 10:51:30,2025-09-12 10:51:10,1.578081111000246,40.57922856857775,Low,Noida Sector 51,Noida Sector 142,
BUS0237,16,A_NN,AQUA_Noida Sector 51 to Noida Sector 142,505,nsez,28.532248,77.394951,2025-09-12 13:04:30,2025-09-12 13:04:10,1.950011395854016,50.14315017910328,Low,Noida Sector 51,Noida Sector 142,
BUS0091,17,A_ND,AQUA_Noida Sector 142 to Depot Station,508,noida sector 142,28.498999,77.412567,2025-09-12 21:51:35,2025-09-12 21:51:15,1.5940744748170204,33.91332612869485,Low,Noida Sector 142,Depot Station,
BUS0055,17,A_ND,AQUA_Noida Sector 142 to Depot Station,514,noida sector 148,28.448021,77.476692,2025-09-12 21:30:35,2025-09-12 21:30:15,1.643388928276541,42.25857244139677,Low,Noida Sector 142,Depot Station,
BUS0188,17,A_ND,AQUA_Noida Sector 142 to Depot Station,512,noida sector 146,28.468822,77.455101,2025-09-12 14:25:55,2025-09-12 14:25:35,1.696352959690326,43.62050467775124,Low,Noida Sector 142,Depot Station,
BUS0126,17,A_ND,AQUA_Noida Sector 142 to Depot Station,512,noida sector 146,28.468822,77.455101,2025-09-12 07:54:40,2025-09-12 07:54:20,1.696352959690326,43.62050467775124,Low,Noida Sector 142,Depot Station,
BUS0058,17,A_ND,AQUA_Noida Sector 142 to Depot Station,512,noida sector 146,28.468822,77.455101,2025-09-12 11:40:55,2025-09-12 11:40:35,1.696352959690326,43.62050467775124,Low,Noida Sector 142,Depot Station,
BUS0188,17,A_ND,AQUA_Noida Sector 142 to Depot Station,515,knowledge park,28.456865,77.500298,2025-09-12 19:44:10,2025-09-12 19:43:50,2.508607469611917,64.50704921859216,Low,Noida Sector 142,Depot Station,
BUS0186,17,A_ND,AQUA_Noida Sector 142 to Depot Station,515,knowledge park,28.456865,77.500298,2025-09-12 17:55:25,2025-09-12 17:55:05,2.508607469611917,64.50704921859216,Low,Noida Sector 142,Depot Station,
BUS0064,17,A_ND,AQUA_Noida Sector 142 to Depot Station,515,knowledge park,28.456865,77.500298,2025-09-12 09:44:10,2025-09-12 09:43:50,2.508607469611917,64.50704921859216,Low,Noida Sector 142,Depot Station,
BUS0170,18,R_RD_R,RED_Dilshad Garden  to Rithala,17,kohat enclave,28.697943,77.140465,2025-09-12 12:18:17,2025-09-12 12:17:57,1.194679274800032,28.67230259520077,Low,Dilshad Garden,Rithala,
BUS0034,18,R_RD_R,RED_Dilshad Garden  to Rithala,17,kohat enclave,28.697943,77.140465,2025-09-12 11:28:41,2025-09-12 11:28:21,1.194679274800032,28.67230259520077,Low,Dilshad Garden,Rithala,
BUS0132,18,R_RD_R,RED_Dilshad Garden  to Rithala,21,rithala,28.720821,77.105042,2025-09-12 07:25:02,2025-09-12 07:24:42,1.22775307134603,25.99947680497476,Low,Dilshad Garden,Rithala,
BUS0295,18,R_RD_R,RED_Dilshad Garden  to Rithala,21,rithala,28.720821,77.105042,2025-09-12 11:50:50,2025-09-12 11:50:30,1.22775307134603,25.99947680497476,Low,Dilshad Garden,Rithala,
BUS0062,18,R_RD_R,RED_Dilshad Garden  to Rithala,20,rohini west,28.715008,77.115746,2025-09-12 22:57:18,2025-09-12 22:56:58,1.251369960739687,30.0328790577525,Low,Dilshad Garden,Rithala,
BUS0291,18,R_RD_R,RED_Dilshad Garden  to Rithala,4,shahdara,28.673531,77.28727,2025-09-12 11:44:52,2025-09-12 11:44:32,1.371862532418809,32.92470077805142,Low,Dilshad Garden,Rithala,
BUS0264,18,R_RD_R,RED_Dilshad Garden  to Rithala,4,shahdara,28.673531,77.28727,2025-09-12 14:11:30,2025-09-12 14:11:10,1.371862532418809,32.92470077805142,Low,Dilshad Garden,Rithala,
BUS0179,18,R_RD_R,RED_Dilshad Garden  to Rithala,7,shastri park,28.668451,77.250404,2025-09-12 13:36:15,2025-09-12 13:35:55,1.662589072184965,35.20776858744632,Low,Dilshad Garden,Rithala,
BUS0218,19,R_RS_R,RED_Shaheed Sthal (New Bus Adda) to Rithala,230,major mohit sharma rajender nagar,28.678095,77.359528,2025-09-12 22:47:35,2025-09-12 22:47:15,1.110546350893449,28.15469621983392,Low,Shaheed Sthal (New Bus Adda),Rithala,
BUS0122,19,R_RS_R,RED_Shaheed Sthal (New Bus Adda) to Rithala,225,shaheed sthal new bus adda,28.670177,77.416031,2025-09-12 17:49:34,2025-09-12 17:49:14,1.2332297782402035,27.7906897687635,Low,Shaheed Sthal (New Bus Adda),Rithala,
BUS0271,19,R_RS_R,RED_Shaheed Sthal (New Bus Adda) to Rithala,20,rohini west,28.715008,77.115746,2025-09-12 19:02:59,2025-09-12 19:02:39,1.251369960739687,30.0328790577525,Low,Shaheed Sthal (New Bus Adda),Rithala,
BUS0273,19,R_RS_R,RED_Shaheed Sthal (New Bus Adda) to Rithala,225,shaheed sthal new bus adda,28.670177,77.416031,2025-09-12 17:56:34,2025-09-12 17:56:14,1.251369960739687,27.7906897687635,Low,Shaheed Sthal (New Bus Adda),Rithala,
BUS0256,19,R_RS_R,RED_Shaheed Sthal (New Bus Adda) to Rithala,20,rohini west,28.715008,77.115746,2025-09-12 18:20:59,2025-09-12 18:20:39,1.251369960739687,30.0328790577525,Low,Shaheed Sthal (New Bus Adda),Rithala,
BUS0040,19,R_RS_R,RED_Shaheed Sthal (New Bus Adda) to Rithala,231,raj bagh,28.677122,77.346466,2025-09-12 19:34:43,2025-09-12 19:34:23,1.27884910303332,32.8846912208568,Low,Shaheed Sthal (New Bus Adda),Rithala,
BUS0288,19,R_RS_R,RED_Shaheed Sthal (New Bus Adda) to Rithala,4,shahdara,28.673531,77.28727,2025-09-12 19:32:39,2025-09-12 19:32:19,1.371862532418809,32.92470077805142,Low,Shaheed Sthal (New Bus Adda),Rithala,
BUS0256,19,R_RS_R,RED_Shaheed Sthal (New Bus Adda) to Rithala,12,shastri nagar,28.670135,77.181679,2025-09-12 23:14:59,2025-09-12 23:14:39,1.5323258781521,31.52213235055748,Low,Shaheed Sthal (New Bus Adda),Rithala,
BUS0264,20,Y_HS_R,YELLOW_Samaypur Badli to Huda City Centre,59,hauz khas,28.543346,77.206673,2025-09-12 07:41:34,2025-09-12 07:41:14,1.835630928276949,35.9145181619403,Low,Samaypur Badli,Huda City Centre,
BUS0097,20,Y_HS_R,YELLOW_Samaypur Badli to Huda City Centre,59,hauz khas,28.543346,77.206673,2025-09-12 13:37:58,2025-09-12 13:37:38,1.835630928276949,35.9145181619403,Low,Samaypur Badli,Huda City Centre,
BUS0062,20,Y_HS_R,YELLOW_Samaypur Badli to Huda City Centre,59,hauz khas,28.543346,77.206673,2025-09-12 18:51:02,2025-09-12 18:50:42,1.835630928276949,35.9145181619403,Low,Samaypur Badli,Huda City Centre,
BUS0282,20,Y_HS_R,YELLOW_Samaypur Badli to Huda City Centre,67,gurudronacharya,28.482075,77.102219,2025-09-12 11:49:43,2025-09-12 11:49:23,2.315790484323193,38.59650807205323,Low,Samaypur Badli,Huda City Centre,
BUS0082,20,Y_HS_R,YELLOW_Samaypur Badli to Huda City Centre,67,gurudronacharya,28.482075,77.102219,2025-09-12 19:35:35,2025-09-12 19:35:15,2.315790484323193,38.59650807205323,Low,Samaypur Badli,Huda City Centre,
BUS0173,20,Y_HS_R,YELLOW_Samaypur Badli to Huda City Centre,66,arjan garh,28.48082,77.12587,2025-09-12 22:09:51,2025-09-12 22:09:31,2.689651150455557,45.24646795158881,Low,Samaypur Badli,Huda City Centre,
BUS0237,20,Y_HS_R,YELLOW_Samaypur Badli to Huda City Centre,38,haiderpur badli mor,28.718657,77.149956,2025-09-12 10:55:43,2025-09-12 10:55:23,2.77499378156871,50.96927353901712,Low,Samaypur Badli,Huda City Centre,
BUS0268,20,Y_HS_R,YELLOW_Samaypur Badli to Huda City Centre,38,haiderpur badli mor,28.718657,77.149956,2025-09-12 20:35:03,2025-09-12 20:34:43,2.77499378156871,50.96927353901712,Low,Samaypur Badli,Huda City Centre,
BUS0168,21,Y_QV_R,YELLOW_Vishwavidyalaya to Qutab Minar,44,vishwavidyalaya,28.694765,77.212418,2025-09-12 19:08:40,2025-09-12 19:08:20,1.3363085380988515,28.01143220932732,Low,Vishwavidyalaya,Qutab Minar,
BUS0172,21,Y_QV_R,YELLOW_Vishwavidyalaya to Qutab Minar,56,dilli haat ina,28.575195,77.209473,2025-09-12 07:34:32,2025-09-12 07:34:12,1.374414698357997,33.4317088789783,Low,Vishwavidyalaya,Qutab Minar,
BUS0196,21,Y_QV_R,YELLOW_Vishwavidyalaya to Qutab Minar,56,dilli haat ina,28.575195,77.209473,2025-09-12 11:50:26,2025-09-12 11:50:06,1.374414698357997,33.4317088789783,Low,Vishwavidyalaya,Qutab Minar,
BUS0105,21,Y_QV_R,YELLOW_Vishwavidyalaya to Qutab Minar,56,dilli haat ina,28.575195,77.209473,2025-09-12 23:30:43,2025-09-12 23:30:23,1.374414698357997,33.4317088789783,Low,Vishwavidyalaya,Qutab Minar,
BUS0205,21,Y_QV_R,YELLOW_Vishwavidyalaya to Qutab Minar,62,qutab minar,28.512714,77.185791,2025-09-12 16:08:47,2025-09-12 16:08:27,1.5933924255427,30.19059332607221,Low,Vishwavidyalaya,Qutab Minar,
BUS0089,21,Y_QV_R,YELLOW_Vishwavidyalaya to Qutab Minar,62,qutab minar,28.512714,77.185791,2025-09-12 19:32:47,2025-09-12 19:32:27,1.5933924255427,30.19059332607221,Low,Vishwavidyalaya,Qutab Minar,
BUS0140,21,Y_QV_R,YELLOW_Vishwavidyalaya to Qutab Minar,60,malviya nagar,28.52817,77.205612,2025-09-12 21:39:22,2025-09-12 21:39:02,1.690674168397489,32.72272583995139,Low,Vishwavidyalaya,Qutab Minar,
BUS0109,21,Y_QV_R,YELLOW_Vishwavidyalaya to Qutab Minar,59,hauz khas,28.543346,77.206673,2025-09-12 17:31:06,2025-09-12 17:30:46,1.835630928276949,35.9145181619403,Low,Vishwavidyalaya,Qutab Minar,
BUS0012,22,Y_HQ_R,YELLOW_Qutab Minar  to Huda City Centre,62,qutab minar,28.512714,77.185791,2025-09-12 14:39:52,2025-09-12 14:39:32,1.409946669253778,32.70191689861661,Low,Qutab Minar,Huda City Centre,
BUS0013,22,Y_HQ_R,YELLOW_Qutab Minar  to Huda City Centre,71,huda city centre,28.459118,77.072586,2025-09-12 13:06:59,2025-09-12 13:06:39,1.447670036911103,37.22580094914264,Low,Qutab Minar,Huda City Centre,
BUS0001,22,Y_HQ_R,YELLOW_Qutab Minar  to Huda City Centre,71,huda city centre,28.459118,77.072586,2025-09-12 16:47:43,2025-09-12 16:47:23,1.447670036911103,37.22580094914264,Low,Qutab Minar,Huda City Centre,
BUS0257,22,Y_HQ_R,YELLOW_Qutab Minar  to Huda City Centre,71,huda city centre,28.459118,77.072586,2025-09-12 21:42:19,2025-09-12 21:41:59,1.447670036911103,37.22580094914264,Low,Qutab Minar,Huda City Centre,
BUS0100,22,Y_HQ_R,YELLOW_Qutab Minar  to Huda City Centre,64,sultanpur,28.499214,77.161362,2025-09-12 10:35:33,2025-09-12 10:35:13,1.553341052684289,32.70191689861661,Low,Qutab Minar,Huda City Centre,
BUS0021,22,Y_HQ_R,YELLOW_Qutab Minar  to Huda City Centre,62,qutab minar,28.512714,77.185791,2025-09-12 05:50:12,2025-09-12 05:49:52,1.7912483368701204,32.70191689861661,Low,Qutab Minar,Huda City Centre,
BUS0186,22,Y_HQ_R,YELLOW_Qutab Minar  to Huda City Centre,62,qutab minar,28.512714,77.185791,2025-09-12 23:32:24,2025-09-12 23:32:04,2.2404497436628388,32.70191689861661,Low,Qutab Minar,Huda City Centre,
BUS0171,22,Y_HQ_R,YELLOW_Qutab Minar  to Huda City Centre,66,arjan garh,28.48082,77.12587,2025-09-12 11:55:34,2025-09-12 11:55:14,2.689651150455557,45.24646795158881,Low,Qutab Minar,Huda City Centre,
BUS0016,23,B_DN_R,BLUE_Noida Electronic City to Dwarka Sector - 21,94,rk ashram marg,28.639217,77.206291,2025-09-12 09:43:56,2025-09-12 09:43:36,1.474621224394028,34.0297205629391,Low,Noida Electronic City,Dwarka Sector - 21,
BUS0195,23,B_DN_R,BLUE_Noida Electronic City to Dwarka Sector - 21,109,uttam nagar east,28.624643,77.063126,2025-09-12 21:37:29,2025-09-12 21:37:09,1.542106161492973,35.36039605971147,Low,Noida Electronic City,Dwarka Sector - 21,
BUS0142,23,B_DN_R,BLUE_Noida Electronic City to Dwarka Sector - 21,109,uttam nagar east,28.624643,77.063126,2025-09-12 08:18:13,2025-09-12 08:17:53,1.542106161492973,35.36039605971147,Low,Noida Electronic City,Dwarka Sector - 21,
BUS0235,23,B_DN_R,BLUE_Noida Electronic City to Dwarka Sector - 21,121,dwarka sector 21,28.552322,77.056198,2025-09-12 14:20:10,2025-09-12 14:19:50,1.713614656544243,30.53966714633304,Low,Noida Electronic City,Dwarka Sector - 21,
BUS0224,23,B_DN_R,BLUE_Noida Electronic City to Dwarka Sector - 21,90,indraprastha,28.620272,77.250076,2025-09-12 18:30:01,2025-09-12 18:29:41,1.7730532411989,32.90201890884557,Low,Noida Electronic City,Dwarka Sector - 21,
BUS0050,23,B_DN_R,BLUE_Noida Electronic City to Dwarka Sector - 21,90,indraprastha,28.620272,77.250076,2025-09-12 13:57:45,2025-09-12 13:57:25,1.7730532411989,32.90201890884557,Low,Noida Electronic City,Dwarka Sector - 21,
BUS0227,23,B_DN_R,BLUE_Noida Electronic City to Dwarka Sector - 21,88,akshardham,28.618364,77.279816,2025-09-12 08:41:38,2025-09-12 08:41:18,1.811475017493404,37.05289808509236,Low,Noida Electronic City,Dwarka Sector - 21,
BUS0014,23,B_DN_R,BLUE_Noida Electronic City to Dwarka Sector - 21,88,akshardham,28.618364,77.279816,2025-09-12 11:19:12,2025-09-12 11:18:52,1.811475017493404,37.05289808509236,Low,Noida Electronic City,Dwarka Sector - 21,
BUS0060,24,B_DV_R,BLUE_Vaishali to Dwarka Sector - 21,109,uttam nagar east,28.624643,77.063126,2025-09-12 11:47:56,2025-09-12 11:47:36,1.542106161492973,35.36039605971147,Low,Vaishali,Dwarka Sector - 21,
BUS0281,24,B_DV_R,BLUE_Vaishali to Dwarka Sector - 21,109,uttam nagar east,28.624643,77.063126,2025-09-12 17:56:54,2025-09-12 17:56:34,1.542106161492973,35.36039605971147,Low,Vaishali,Dwarka Sector - 21,
BUS0235,24,B_DV_R,BLUE_Vaishali to Dwarka Sector - 21,73,kaushambi,28.645428,77.322273,2025-09-12 20:09:27,2025-09-12 20:09:07,1.582554714840545,32.55541127671979,Low,Vaishali,Dwarka Sector - 21,
BUS0101,24,B_DV_R,BLUE_Vaishali to Dwarka Sector - 21,73,kaushambi,28.645428,77.322273,2025-09-12 22:43:31,2025-09-12 22:43:11,1.582554714840545,32.55541127671979,Low,Vaishali,Dwarka Sector - 21,
BUS0194,24,B_DV_R,BLUE_Vaishali to Dwarka Sector - 21,90,indraprastha,28.620272,77.250076,2025-09-12 07:37:14,2025-09-12 07:36:54,1.7730532411989,32.90201890884557,Low,Vaishali,Dwarka Sector - 21,
BUS0152,24,B_DV_R,BLUE_Vaishali to Dwarka Sector - 21,90,indraprastha,28.620272,77.250076,2025-09-12 18:16:46,2025-09-12 18:16:26,1.7730532411989,32.90201890884557,Low,Vaishali,Dwarka Sector - 21,
BUS0194,24,B_DV_R,BLUE_Vaishali to Dwarka Sector - 21,90,indraprastha,28.620272,77.250076,2025-09-12 08:45:54,2025-09-12 08:45:34,1.7730532411989,32.90201890884557,Low,Vaishali,Dwarka Sector - 21,
BUS0164,24,B_DV_R,BLUE_Vaishali to Dwarka Sector - 21,98,patel nagar,28.645037,77.167046,2025-09-12 18:32:32,2025-09-12 18:32:12,2.436453187515943,66.44872329588935,Low,Vaishali,Dwarka Sector - 21,
BUS0246,25,G_KB_R,GREEN_Brigadier Hoshiyar Singh to Kirti Nagar,34,ashok park main,28.671572,77.155159,2025-09-12 12:24:08,2025-09-12 12:23:48,0.905405870519148,22.47904230254436,Medium,Brigadier Hoshiyar Singh,Kirti Nagar,
BUS0162,25,G_KB_R,GREEN_Brigadier Hoshiyar Singh to Kirti Nagar,30,paschim vihar east,28.677305,77.112251,2025-09-12 23:14:33,2025-09-12 23:14:13,0.9979036611017336,35.92453179966241,Low,Brigadier Hoshiyar Singh,Kirti Nagar,
BUS0057,25,G_KB_R,GREEN_Brigadier Hoshiyar Singh to Kirti Nagar,32,shivaji park,28.674965,77.128258,2025-09-12 10:22:03,2025-09-12 10:21:43,1.08174685270241,29.95606669022058,Low,Brigadier Hoshiyar Singh,Kirti Nagar,
BUS0113,25,G_KB_R,GREEN_Brigadier Hoshiyar Singh to Kirti Nagar,100,kirti nagar,28.655773,77.148499,2025-09-12 10:59:33,2025-09-12 10:59:13,1.156528029499863,34.69584088499588,Low,Brigadier Hoshiyar Singh,Kirti Nagar,
BUS0040,25,G_KB_R,GREEN_Brigadier Hoshiyar Singh to Kirti Nagar,100,kirti nagar,28.655773,77.148499,2025-09-12 11:53:33,2025-09-12 11:53:13,1.156528029499863,34.69584088499588,Low,Brigadier Hoshiyar Singh,Kirti Nagar,
BUS0214,25,G_KB_R,GREEN_Brigadier Hoshiyar Singh to Kirti Nagar,198,tikri kalan,28.686899,76.977249,2025-09-12 09:51:50,2025-09-12 09:51:30,1.318038609345628,30.22254136079146,Low,Brigadier Hoshiyar Singh,Kirti Nagar,
BUS0175,25,G_KB_R,GREEN_Brigadier Hoshiyar Singh to Kirti Nagar,22,mundka,28.682411,77.028282,2025-09-12 13:34:24,2025-09-12 13:34:04,3.755719626151913,29.49890443869497,Low,Brigadier Hoshiyar Singh,Kirti Nagar,
BUS0167,25,G_KB_R,GREEN_Brigadier Hoshiyar Singh to Kirti Nagar,22,mundka,28.682411,77.028282,2025-09-12 14:24:24,2025-09-12 14:24:04,3.755719626151913,29.49890443869497,Low,Brigadier Hoshiyar Singh,Kirti Nagar,
BUS0195,26,G_IB_R,GREEN_Brigadier Hoshiyar Singh to Inderlok,198,tikri kalan,28.686899,76.977249,2025-09-12 22:48:50,2025-09-12 22:48:30,1.318038609345628,30.22254136079146,Low,Brigadier Hoshiyar Singh,Inderlok,
BUS0189,26,G_IB_R,GREEN_Brigadier Hoshiyar Singh to Inderlok,202,brigadier hoshiyar singh,28.697428,76.919128,2025-09-12 17:04:20,2025-09-12 17:04:00,1.4016066105804272,29.95606669022058,Low,Brigadier Hoshiyar Singh,Inderlok,
BUS0017,26,G_IB_R,GREEN_Brigadier Hoshiyar Singh to Inderlok,13,inderlok,28.673452,77.170235,2025-09-12 18:47:58,2025-09-12 18:47:38,1.485593308442443,31.45962300231055,Low,Brigadier Hoshiyar Singh,Inderlok,
BUS0253,26,G_IB_R,GREEN_Brigadier Hoshiyar Singh to Inderlok,13,inderlok,28.673452,77.170235,2025-09-12 15:33:58,2025-09-12 15:33:38,1.485593308442443,31.45962300231055,Low,Brigadier Hoshiyar Singh,Inderlok,
BUS0141,26,G_IB_R,GREEN_Brigadier Hoshiyar Singh to Inderlok,197,ghevra metro station,28.685289,76.993584,2025-09-12 14:08:54,2025-09-12 14:08:34,1.603458085319774,31.37200601712601,Low,Brigadier Hoshiyar Singh,Inderlok,
BUS0158,26,G_IB_R,GREEN_Brigadier Hoshiyar Singh to Inderlok,33,punjabi bagh,28.672943,77.146011,2025-09-12 16:08:43,2025-09-12 16:08:23,1.746488204984434,39.29598461214976,Low,Brigadier Hoshiyar Singh,Inderlok,
BUS0033,26,G_IB_R,GREEN_Brigadier Hoshiyar Singh to Inderlok,33,punjabi bagh,28.672943,77.146011,2025-09-12 12:12:43,2025-09-12 12:12:23,1.746488204984434,39.29598461214976,Low,Brigadier Hoshiyar Singh,Inderlok,
BUS0052,26,G_IB_R,GREEN_Brigadier Hoshiyar Singh to Inderlok,33,punjabi bagh,28.672943,77.146011,2025-09-12 11:27:43,2025-09-12 11:27:23,1.746488204984434,39.29598461214976,Low,Brigadier Hoshiyar Singh,Inderlok,
BUS0109,27,V_KB_R,VIOLET_Badarpur Border to Kashmere Gate,134,jasolaapollo,28.538084,77.285538,2025-09-12 15:51:54,2025-09-12 15:51:34,1.087273144864653,24.16162544143674,Medium,Badarpur Border,Kashmere Gate,
BUS0175,27,V_KB_R,VIOLET_Badarpur Border to Kashmere Gate,134,jasolaapollo,28.538084,77.285538,2025-09-12 20:16:30,2025-09-12 20:16:10,1.087273144864653,24.16162544143674,Medium,Badarpur Border,Kashmere Gate,
BUS0015,27,V_KB_R,VIOLET_Badarpur Border to Kashmere Gate,132,govind puri,28.544413,77.264259,2025-09-12 11:13:51,2025-09-12 11:13:31,1.150471250364226,21.2394692374934,Medium,Badarpur Border,Kashmere Gate,
BUS0213,27,V_KB_R,VIOLET_Badarpur Border to Kashmere Gate,138,badarpur border,28.4932,77.30085,2025-09-12 15:31:20,2025-09-12 15:31:00,1.3337104029332716,25.64276082921624,Low,Badarpur Border,Kashmere Gate,
BUS0144,27,V_KB_R,VIOLET_Badarpur Border to Kashmere Gate,158,delhi gate,28.640488,77.240303,2025-09-12 08:49:06,2025-09-12 08:48:46,1.478359713941524,38.56590558108324,Low,Badarpur Border,Kashmere Gate,
BUS0011,27,V_KB_R,VIOLET_Badarpur Border to Kashmere Gate,123,janpath,28.627817,77.218956,2025-09-12 20:01:04,2025-09-12 20:00:44,1.58014766100189,55.22846193793013,Low,Badarpur Border,Kashmere Gate,
BUS0190,27,V_KB_R,VIOLET_Badarpur Border to Kashmere Gate,52,central secretariat,28.614973,77.212029,2025-09-12 18:51:21,2025-09-12 18:51:01,2.080355944276128,32.28138534221578,Low,Badarpur Border,Kashmere Gate,
BUS0245,27,V_KB_R,VIOLET_Badarpur Border to Kashmere Gate,52,central secretariat,28.614973,77.212029,2025-09-12 21:20:57,2025-09-12 21:20:37,2.080355944276128,32.28138534221578,Low,Badarpur Border,Kashmere Gate,
BUS0186,28,V_KR_R,VIOLET_Raja Nahar Singh to Kashmere Gate,92,mandi house,28.625816,77.234726,2025-09-12 23:11:13,2025-09-12 23:10:53,1.555187661486888,25.56472868197625,Low,Raja Nahar Singh,Kashmere Gate,
BUS0291,28,V_KR_R,VIOLET_Raja Nahar Singh to Kashmere Gate,136,mohan estate,28.51959,77.294518,2025-09-12 16:26:07,2025-09-12 16:25:47,1.972096065078998,33.48842374662451,Low,Raja Nahar Singh,Kashmere Gate,
BUS0137,28,V_KR_R,VIOLET_Raja Nahar Singh to Kashmere Gate,136,mohan estate,28.51959,77.294518,2025-09-12 20:37:07,2025-09-12 20:36:47,1.972096065078998,33.48842374662451,Low,Raja Nahar Singh,Kashmere Gate,
BUS0009,28,V_KR_R,VIOLET_Raja Nahar Singh to Kashmere Gate,142,sector28,28.440586,77.305992,2025-09-12 19:18:52,2025-09-12 19:18:32,2.030865625403408,46.5676194360017,Low,Raja Nahar Singh,Kashmere Gate,
BUS0047,28,V_KR_R,VIOLET_Raja Nahar Singh to Kashmere Gate,52,central secretariat,28.614973,77.212029,2025-09-12 20:45:39,2025-09-12 20:45:19,2.080355944276128,32.28138534221578,Low,Raja Nahar Singh,Kashmere Gate,
BUS0166,28,V_KR_R,VIOLET_Raja Nahar Singh to Kashmere Gate,52,central secretariat,28.614973,77.212029,2025-09-12 11:48:27,2025-09-12 11:48:07,2.080355944276128,32.28138534221578,Low,Raja Nahar Singh,Kashmere Gate,
BUS0130,28,V_KR_R,VIOLET_Raja Nahar Singh to Kashmere Gate,52,central secretariat,28.614973,77.212029,2025-09-12 18:50:03,2025-09-12 18:49:43,2.080355944276128,32.28138534221578,Low,Raja Nahar Singh,Kashmere Gate,
BUS0156,28,V_KR_R,VIOLET_Raja Nahar Singh to Kashmere Gate,219,sant surdas sihi,28.354666,77.316261,2025-09-12 08:10:40,2025-09-12 08:10:20,2.228512232438074,21.11222114941333,Medium,Raja Nahar Singh,Kashmere Gate,
BUS0171,29,P_MS_R,PINK_Shiv Vihar to Majlis Park,103,rajouri garden,28.649157,77.122749,2025-09-12 11:50:26,2025-09-12 11:50:06,1.504388842114659,28.06113902390037,Low,Shiv Vihar,Majlis Park,
BUS0279,29,P_MS_R,PINK_Shiv Vihar to Majlis Park,203,sir vishweshwaraiah moti bagh,28.578529,77.175713,2025-09-12 13:22:47,2025-09-12 13:22:27,1.504817728155462,30.95625040776951,Low,Shiv Vihar,Majlis Park,
BUS0076,29,P_MS_R,PINK_Shiv Vihar to Majlis Park,203,sir vishweshwaraiah moti bagh,28.578529,77.175713,2025-09-12 10:45:44,2025-09-12 10:45:24,1.504817728155462,30.95625040776951,Low,Shiv Vihar,Majlis Park,
BUS0254,29,P_MS_R,PINK_Shiv Vihar to Majlis Park,41,azadpur,28.707287,77.179863,2025-09-12 20:25:47,2025-09-12 20:25:27,1.555360163496826,31.10720326993651,Low,Shiv Vihar,Majlis Park,
BUS0122,29,P_MS_R,PINK_Shiv Vihar to Majlis Park,178,mayapuri,28.637098,77.129738,2025-09-12 15:17:28,2025-09-12 15:17:08,1.58600659533963,28.83648355162964,Low,Shiv Vihar,Majlis Park,
BUS0259,29,P_MS_R,PINK_Shiv Vihar to Majlis Park,178,mayapuri,28.637098,77.129738,2025-09-12 10:29:13,2025-09-12 10:28:53,1.58600659533963,28.83648355162964,Low,Shiv Vihar,Majlis Park,
BUS0037,29,P_MS_R,PINK_Shiv Vihar to Majlis Park,210,ip extension,28.631599,77.310898,2025-09-12 12:09:17,2025-09-12 12:08:57,1.789084248094292,23.85445664125723,Medium,Shiv Vihar,Majlis Park,
BUS0141,29,P_MS_R,PINK_Shiv Vihar to Majlis Park,205,sarojini nagar,28.570208,77.187866,2025-09-12 18:11:04,2025-09-12 18:10:44,2.181631759416192,54.92219813914888,Low,Shiv Vihar,Majlis Park,
BUS0227,30,M_JB_R,MAGENTA_Botanical Garden to Janak Puri West,81,botanical garden,28.564198,77.334656,2025-09-12 20:18:00,2025-09-12 20:17:40,1.829626272011394,29.5574422803324,Low,Botanical Garden,Janak Puri West,
BUS0048,30,M_JB_R,MAGENTA_Botanical Garden to Janak Puri West,191,terminal 1 igi airport,28.565275,77.122391,2025-09-12 18:35:15,2025-09-12 18:34:55,1.832163144189893,32.17457228821276,Low,Botanical Garden,Janak Puri West,
BUS0083,30,M_JB_R,MAGENTA_Botanical Garden to Janak Puri West,190,shankar vihar,28.560787,77.140442,2025-09-12 09:57:50,2025-09-12 09:57:30,2.003706167785074,38.36884151077802,Low,Botanical Garden,Janak Puri West,
BUS0281,30,M_JB_R,MAGENTA_Botanical Garden to Janak Puri West,193,palam,28.589067,77.082954,2025-09-12 07:19:58,2025-09-12 07:19:38,3.07110154282322,47.24771604343415,Low,Botanical Garden,Janak Puri West,
BUS0262,30,M_JB_R,MAGENTA_Botanical Garden to Janak Puri West,193,palam,28.589067,77.082954,2025-09-12 22:51:08,2025-09-12 22:50:48,3.07110154282322,47.24771604343415,Low,Botanical Garden,Janak Puri West,
BUS0262,30,M_JB_R,MAGENTA_Botanical Garden to Janak Puri West,193,palam,28.589067,77.082954,2025-09-12 17:00:18,2025-09-12 16:59:58,3.07110154282322,47.24771604343415,Low,Botanical Garden,Janak Puri West,
BUS0297,30,M_JB_R,MAGENTA_Botanical Garden to Janak Puri West,193,palam,28.589067,77.082954,2025-09-12 10:13:33,2025-09-12 10:13:13,3.07110154282322,47.24771604343415,Low,Botanical Garden,Janak Puri West,
BUS0080,30,M_JB_R,MAGENTA_Botanical Garden to Janak Puri West,193,palam,28.589067,77.082954,2025-09-12 15:19:03,2025-09-12 15:18:43,3.07110154282322,47.24771604343415,Low,Botanical Garden,Janak Puri West,
BUS0095,31,G_DD_R,GRAY_Dhansa Bus Stand to Dwarka,240,najafgarh,28.613316,76.986259,2025-09-12 19:48:40,2025-09-12 19:48:20,1.069824744964363,27.50977915622646,Low,Dhansa Bus Stand,Dwarka,
BUS0013,31,G_DD_R,GRAY_Dhansa Bus Stand to Dwarka,240,najafgarh,28.613316,76.986259,2025-09-12 10:24:40,2025-09-12 10:24:20,1.069824744964363,27.50977915622646,Low,Dhansa Bus Stand,Dwarka,
BUS0043,31,G_DD_R,GRAY_Dhansa Bus Stand to Dwarka,241,dhansa bus stand,28.611858,76.975426,2025-09-12 05:55:20,2025-09-12 05:55:00,1.1481773165540765,28.30453588024132,Low,Dhansa Bus Stand,Dwarka,
BUS0280,31,G_DD_R,GRAY_Dhansa Bus Stand to Dwarka,113,dwarka,28.614899,77.022629,2025-09-12 14:19:40,2025-09-12 14:19:20,1.22652988814379,28.30453588024132,Low,Dhansa Bus Stand,Dwarka,
BUS0233,31,G_DD_R,GRAY_Dhansa Bus Stand to Dwarka,239,nangli,28.61722,77.010345,2025-09-12 14:32:04,2025-09-12 14:31:44,2.390848654033864,32.60248164591633,Low,Dhansa Bus Stand,Dwarka,
BUS0260,32,O_DN_R,ORANGE/AIRPORT_New Delhi to Dwarka Sector - 21,157,shivaji stadium,28.629007,77.209213,2025-09-12 10:28:40,2025-09-12 10:28:20,2.011379698681395,36.20483457626511,Low,New Delhi,Dwarka Sector - 21,
BUS0110,32,O_DN_R,ORANGE/AIRPORT_New Delhi to Dwarka Sector - 21,49,new delhi,28.642944,77.222351,2025-09-12 14:55:20,2025-09-12 14:55:00,2.561346217845585,42.91465844151415,Low,New Delhi,Dwarka Sector - 21,
BUS0093,32,O_DN_R,ORANGE/AIRPORT_New Delhi to Dwarka Sector - 21,121,dwarka sector 21,28.552322,77.056198,2025-09-12 13:03:06,2025-09-12 13:02:46,3.111312737009776,42.91465844151415,Low,New Delhi,Dwarka Sector - 21,
BUS0193,32,O_DN_R,ORANGE/AIRPORT_New Delhi to Dwarka Sector - 21,121,dwarka sector 21,28.552322,77.056198,2025-09-12 16:03:06,2025-09-12 16:02:46,3.111312737009776,42.91465844151415,Low,New Delhi,Dwarka Sector - 21,
BUS0181,32,O_DN_R,ORANGE/AIRPORT_New Delhi to Dwarka Sector - 21,49,new delhi,28.642944,77.222351,2025-09-12 20:35:20,2025-09-12 20:35:00,4.666964157977507,42.91465844151415,Low,New Delhi,Dwarka Sector - 21,
BUS0210,32,O_DN_R,ORANGE/AIRPORT_New Delhi to Dwarka Sector - 21,155,delhi aerocity,28.548792,77.120743,2025-09-12 12:42:20,2025-09-12 12:42:00,6.222615578945237,52.9584304591084,Low,New Delhi,Dwarka Sector - 21,
BUS0039,32,O_DN_R,ORANGE/AIRPORT_New Delhi to Dwarka Sector - 21,156,dhaula kuan,28.591776,77.161545,2025-09-12 06:45:17,2025-09-12 06:44:57,6.228270873870684,56.47802303761829,Low,New Delhi,Dwarka Sector - 21,
BUS0081,33,R_SP_R,RAPID_Phase 3 (Rapid Metro) to Sector 55-56 (Rapid Metro),168,phasei rapid metro,28.471981,77.094009,2025-09-12 21:29:10,2025-09-12 21:28:50,1.046710441241135,26.91541134620062,Low,Phase 3 (Rapid Metro),Sector 55-56 (Rapid Metro),
BUS0289,33,R_SP_R,RAPID_Phase 3 (Rapid Metro) to Sector 55-56 (Rapid Metro),168,phasei rapid metro,28.471981,77.094009,2025-09-12 07:18:40,2025-09-12 07:18:20,1.046710441241135,26.91541134620062,Low,Phase 3 (Rapid Metro),Sector 55-56 (Rapid Metro),
BUS0139,33,R_SP_R,RAPID_Phase 3 (Rapid Metro) to Sector 55-56 (Rapid Metro),172,sector 5556 rapid metro,28.424587,77.105042,2025-09-12 10:30:20,2025-09-12 10:30:00,1.070553106380892,19.26995591485605,Medium,Phase 3 (Rapid Metro),Sector 55-56 (Rapid Metro),
BUS0027,33,R_SP_R,RAPID_Phase 3 (Rapid Metro) to Sector 55-56 (Rapid Metro),172,sector 5556 rapid metro,28.424587,77.105042,2025-09-12 14:52:50,2025-09-12 14:52:30,1.070553106380892,19.26995591485605,Medium,Phase 3 (Rapid Metro),Sector 55-56 (Rapid Metro),
BUS0125,33,R_SP_R,RAPID_Phase 3 (Rapid Metro) to Sector 55-56 (Rapid Metro),172,sector 5556 rapid metro,28.424587,77.105042,2025-09-12 08:08:00,2025-09-12 08:07:40,1.070553106380892,19.26995591485605,Medium,Phase 3 (Rapid Metro),Sector 55-56 (Rapid Metro),
BUS0215,33,R_SP_R,RAPID_Phase 3 (Rapid Metro) to Sector 55-56 (Rapid Metro),170,sector 5354 rapid metro,28.447533,77.100487,2025-09-12 10:18:50,2025-09-12 10:18:30,1.267860276872467,22.8214849837044,Medium,Phase 3 (Rapid Metro),Sector 55-56 (Rapid Metro),
BUS0190,33,R_SP_R,RAPID_Phase 3 (Rapid Metro) to Sector 55-56 (Rapid Metro),170,sector 5354 rapid metro,28.447533,77.100487,2025-09-12 06:49:20,2025-09-12 06:49:00,1.267860276872467,22.8214849837044,Medium,Phase 3 (Rapid Metro),Sector 55-56 (Rapid Metro),
BUS0240,33,R_SP_R,RAPID_Phase 3 (Rapid Metro) to Sector 55-56 (Rapid Metro),171,sector 54 chowk rapid metro,28.434212,77.104782,2025-09-12 11:10:30,2025-09-12 11:10:10,1.539606067359056,27.71290921246301,Low,Phase 3 (Rapid Metro),Sector 55-56 (Rapid Metro),
BUS0190,34,A_NN_R,AQUA_Noida Sector 142 to Noida Sector 51,501,noida sector 50,28.574547,77.378357,2025-09-12 18:41:40,2025-09-12 18:41:20,1.020938948053567,26.25271580709173,Low,Noida Sector 142,Noida Sector 51,
BUS0002,34,A_NN_R,AQUA_Noida Sector 142 to Noida Sector 51,505,nsez,28.532248,77.394951,2025-09-12 07:27:20,2025-09-12 07:27:00,1.117931297993304,28.74680480554211,Low,Noida Sector 142,Noida Sector 51,
BUS0163,34,A_NN_R,AQUA_Noida Sector 142 to Noida Sector 51,505,nsez,28.532248,77.394951,2025-09-12 11:24:50,2025-09-12 11:24:30,1.117931297993304,28.74680480554211,Low,Noida Sector 142,Noida Sector 51,
BUS0103,34,A_NN_R,AQUA_Noida Sector 142 to Noida Sector 51,502,noida sector 76,28.565445,77.37973,2025-09-12 18:16:50,2025-09-12 18:16:30,1.165516901528205,29.97043461072527,Low,Noida Sector 142,Noida Sector 51,
BUS0073,34,A_NN_R,AQUA_Noida Sector 142 to Noida Sector 51,500,noida sector 51,28.585548,77.375374,2025-09-12 17:29:00,2025-09-12 17:28:40,1.257456261593408,32.33458958383049,Low,Noida Sector 142,Noida Sector 51,
BUS0128,34,A_NN_R,AQUA_Noida Sector 142 to Noida Sector 51,500,noida sector 51,28.585548,77.375374,2025-09-12 18:06:30,2025-09-12 18:06:10,1.257456261593408,32.33458958383049,Low,Noida Sector 142,Noida Sector 51,
BUS0081,34,A_NN_R,AQUA_Noida Sector 142 to Noida Sector 51,506,noida sector 83,28.522284,77.396477,2025-09-12 19:15:00,2025-09-12 19:14:40,1.453809467977946,37.38367203371862,Low,Noida Sector 142,Noida Sector 51,
BUS0208,34,A_NN_R,AQUA_Noida Sector 142 to Noida Sector 51,506,noida sector 83,28.522284,77.396477,2025-09-12 11:30:00,2025-09-12 11:29:40,1.453809467977946,37.38367203371862,Low,Noida Sector 142,Noida Sector 51,
BUS0250,35,A_ND_R,AQUA_Depot Station to Noida Sector 142,520,depot station,28.488651,77.544075,2025-09-12 10:24:05,2025-09-12 10:23:45,1.487119959084589,33.91332612869485,Low,Depot Station,Noida Sector 142,
BUS0170,35,A_ND_R,AQUA_Depot Station to Noida Sector 142,517,alpha 1,28.470879,77.512718,2025-09-12 12:33:35,2025-09-12 12:33:15,1.508411335828507,38.7877200641616,Low,Depot Station,Noida Sector 142,
BUS0238,35,A_ND_R,AQUA_Depot Station to Noida Sector 142,517,alpha 1,28.470879,77.512718,2025-09-12 16:28:35,2025-09-12 16:28:15,1.508411335828507,38.7877200641616,Low,Depot Station,Noida Sector 142,
BUS0016,35,A_ND_R,AQUA_Depot Station to Noida Sector 142,517,alpha 1,28.470879,77.512718,2025-09-12 17:03:35,2025-09-12 17:03:15,1.508411335828507,38.7877200641616,Low,Depot Station,Noida Sector 142,
BUS0085,35,A_ND_R,AQUA_Depot Station to Noida Sector 142,513,noida sector 147,28.4594,77.465965,2025-09-12 09:14:10,2025-09-12 09:13:50,1.643388928276541,42.25857244139677,Low,Depot Station,Noida Sector 142,
BUS0041,35,A_ND_R,AQUA_Depot Station to Noida Sector 142,511,noida sector 145,28.47913,77.442307,2025-09-12 18:41:20,2025-09-12 18:41:00,1.696352959690326,43.62050467775124,Low,Depot Station,Noida Sector 142,
BUS0217,35,A_ND_R,AQUA_Depot Station to Noida Sector 142,511,noida sector 145,28.47913,77.442307,2025-09-12 18:22:35,2025-09-12 18:22:15,1.696352959690326,43.62050467775124,Low,Depot Station,Noida Sector 142,
BUS0110,35,A_ND_R,AQUA_Depot Station to Noida Sector 142,514,noida sector 148,28.448021,77.476692,2025-09-12 06:24:20,2025-09-12 06:24:00,2.508607469611917,64.50704921859216,Low,Depot Station,Noida Sector 142,
